{
"type": "FeatureCollection",
"crs": { "type": "name", "properties": { "name": "urn:ogc:def:crs:OGC:1.3:CRS84" } },
"features": [
{ "type": "Feature", "properties": { "name": "Microsoft Quincy Campus", "operator": "Microsoft", "city": "Quincy", "lat": 47.234, "lon": -119.852, "source": "reported" }, "geometry": { "type": "Point", "coordinates": [ -119.852, 47.234 ] } },
{ "type": "Feature", "properties": { "name": "Vantage WA13", "operator": "Vantage", "city": "Quincy", "lat": 47.233, "lon": -119.847, "source": "reported" }, "geometry": { "type": "Point", "coordinates": [ -119.847, 47.233 ] } },
{ "type": "Feature", "properties": { "name": "CyrusOne Quincy", "operator": "CyrusOne", "city": "Quincy", "lat": 47.236, "lon": -119.844, "source": "reported" }, "geometry": { "type": "Point", "coordinates": [ -119.844, 47.236 ] } },
{ "type": "Feature", "properties": { "name": "Sabey SDC Quincy", "operator": "Sabey", "city": "Quincy", "lat": 47.24, "lon": -119.843, "source": "reported" }, "geometry": { "type": "Point", "coordinates": [ -119.843, 47.24 ] } },
{ "type": "Feature", "properties": { "name": "H5 Data Centers Quincy II", "operator": "H5 Data Centers", "city": "Quincy", "lat": 47.232, "lon": -119.843, "source": "reported" }, "geometry": { "type": "Point", "coordinates": [ -119.843, 47.232 ] } },
{ "type": "Feature", "properties": { "name": "Dell / Yahoo Quincy", "operator": "Dell/Yahoo", "city": "Quincy", "lat": 47.236, "lon": -119.855, "source": "reported" }, "geometry": { "type": "Point", "coordinates": [ -119.855, 47.236 ] } },
{ "type": "Feature", "properties": { "name": "Microsoft EAT06/EAT09", "operator": "Microsoft", "city": "East Wenatchee", "lat": 47.413, "lon": -120.31, "source": "reported" }, "geometry": { "type": "Point", "coordinates": [ -120.31, 47.413 ] } },
{ "type": "Feature", "properties": { "name": "Microsoft Malaga Campus", "operator": "Microsoft", "city": "Malaga", "lat": 47.369, "lon": -120.332, "source": "reported" }, "geometry": { "type": "Point", "coordinates": [ -120.332, 47.369 ] } },
{ "type": "Feature", "properties": { "name": "Sabey SDC Columbia", "operator": "Sabey", "city": "East Wenatchee", "lat": 47.411, "lon": -120.307, "source": "reported" }, "geometry": { "type": "Point", "coordinates": [ -120.307, 47.411 ] } },
{ "type": "Feature", "properties": { "name": "Equinix SE2 Seattle", "operator": "Equinix", "city": "Seattle", "lat": 47.617, "lon": -122.336, "source": "reported" }, "geometry": { "type": "Point", "coordinates": [ -122.336, 47.617 ] } },
{ "type": "Feature", "properties": { "name": "Westin Building Exchange", "operator": "Various", "city": "Seattle", "lat": 47.616, "lon": -122.336, "source": "reported" }, "geometry": { "type": "Point", "coordinates": [ -122.336, 47.616 ] } },
{ "type": "Feature", "properties": { "name": "Verizon Seattle", "operator": "Verizon", "city": "Seattle", "lat": 47.605, "lon": -122.334, "source": "reported" }, "geometry": { "type": "Point", "coordinates": [ -122.334, 47.605 ] } },
{ "type": "Feature", "properties": { "name": "HorizonIQ Seattle (Tukwila)", "operator": "HorizonIQ", "city": "Tukwila", "lat": 47.468, "lon": -122.268, "source": "reported" }, "geometry": { "type": "Point", "coordinates": [ -122.268, 47.468 ] } },
{ "type": "Feature", "properties": { "name": "ColoCrossing SEA1 (Tukwila)", "operator": "ColoCrossing", "city": "Tukwila", "lat": 47.465, "lon": -122.249, "source": "reported" }, "geometry": { "type": "Point", "coordinates": [ -122.249, 47.465 ] } },
{ "type": "Feature", "properties": { "name": "Verizon Liberty Lake", "operator": "Verizon", "city": "Liberty Lake", "lat": 47.682, "lon": -117.119, "source": "reported" }, "geometry": { "type": "Point", "coordinates": [ -117.119, 47.682 ] } },
{ "type": "Feature", "properties": { "name": "Digital Realty (proposed)", "operator": "Digital Realty", "city": "Unincorporated", "lat": 47.609, "lon": -122.338, "source": "proposed" }, "geometry": { "type": "Point", "coordinates": [ -122.338, 47.609 ] } },
{ "type": "Feature", "properties": { "name": "Amazon Wallula Gap (proposed)", "operator": "Amazon/AWS", "city": "Burbank", "lat": 46.195, "lon": -119.042, "source": "proposed" }, "geometry": { "type": "Point", "coordinates": [ -119.042, 46.195 ] } },
{ "type": "Feature", "properties": { "name": "Atlas Agro Richland DC1 (proposed)", "operator": "Atlas Agro", "city": "Richland", "lat": 46.365, "lon": -119.365, "source": "proposed" }, "geometry": { "type": "Point", "coordinates": [ -119.365, 46.365 ] } },
{ "type": "Feature", "properties": { "name": "Trammell Crow Lewis Clark (proposed)", "operator": "Trammell Crow", "city": "West Richland", "lat": 46.28, "lon": -119.47, "source": "proposed" }, "geometry": { "type": "Point", "coordinates": [ -119.47, 46.28 ] } }
]
}
